[
    {
        "round": 1,
        "name": "Australian Grand Prix",
        "date": "2026-03-08",
        "lat": -37.8497,
        "lon": 144.968
    },
    {
        "round": 2,
        "name": "Chinese Grand Prix",
        "date": "2026-03-15",
        "lat": 31.3389,
        "lon": 121.22
    },
    {
        "round": 3,
        "name": "Japanese Grand Prix",
        "date": "2026-03-29",
        "lat": 34.8431,
        "lon": 136.541
    },
    {
        "round": 4,
        "name": "Bahrain Grand Prix",
        "date": "2026-04-12",
        "lat": 26.0325,
        "lon": 50.5106
    },
    {
        "round": 5,
        "name": "Saudi Arabian Grand Prix",
        "date": "2026-04-19",
        "lat": 21.6319,
        "lon": 39.1044
    },
    {
        "round": 6,
        "name": "Miami Grand Prix",
        "date": "2026-05-03",
        "lat": 25.9581,
        "lon": -80.2389
    },
    {
        "round": 7,
        "name": "Canadian Grand Prix",
        "date": "2026-05-24",
        "lat": 45.5,
        "lon": -73.5228
    },
    {
        "round": 8,
        "name": "Monaco Grand Prix",
        "date": "2026-06-07",
        "lat": 43.7347,
        "lon": 7.42056
    },
    {
        "round": 9,
        "name": "Spanish Grand Prix",
        "date": "2026-06-14",
        "lat": 41.57,
        "lon": 2.26111
    },
    {
        "round": 10,
        "name": "Austrian Grand Prix",
        "date": "2026-06-28",
        "lat": 47.2197,
        "lon": 14.7647
    },
    {
        "round": 11,
        "name": "British Grand Prix",
        "date": "2026-07-05",
        "lat": 52.0786,
        "lon": -1.01694
    },
    {
        "round": 12,
        "name": "Belgian Grand Prix",
        "date": "2026-07-19",
        "lat": 50.4372,
        "lon": 5.97139
    },
    {
        "round": 13,
        "name": "Hungarian Grand Prix",
        "date": "2026-07-26",
        "lat": 47.5822,
        "lon": 19.2511
    },
    {
        "round": 14,
        "name": "Dutch Grand Prix",
        "date": "2026-08-23",
        "lat": 52.3888,
        "lon": 4.54092
    },
    {
        "round": 15,
        "name": "Italian Grand Prix",
        "date": "2026-09-06",
        "lat": 45.6156,
        "lon": 9.28111
    },
    {
        "round": 16,
        "name": "Madrid Grand Prix",
        "date": "2026-09-13",
        "lat": 40.4168,
        "lon": -3.7038
    },
    {
        "round": 17,
        "name": "Azerbaijan Grand Prix",
        "date": "2026-09-26",
        "lat": 40.3725,
        "lon": 49.8533
    },
    {
        "round": 18,
        "name": "Singapore Grand Prix",
        "date": "2026-10-11",
        "lat": 1.2914,
        "lon": 103.864
    },
    {
        "round": 19,
        "name": "United States Grand Prix",
        "date": "2026-10-25",
        "lat": 30.1328,
        "lon": -97.6411
    },
    {
        "round": 20,
        "name": "Mexico City Grand Prix",
        "date": "2026-11-01",
        "lat": 19.4042,
        "lon": -99.0907
    },
    {
        "round": 21,
        "name": "Brazilian Grand Prix",
        "date": "2026-11-08",
        "lat": -23.7036,
        "lon": -46.6997
    },
    {
        "round": 22,
        "name": "Las Vegas Grand Prix",
        "date": "2026-11-22",
        "lat": 36.1147,
        "lon": -115.173
    },
    {
        "round": 23,
        "name": "Qatar Grand Prix",
        "date": "2026-11-29",
        "lat": 25.49,
        "lon": 51.4542
    },
    {
        "round": 24,
        "name": "Abu Dhabi Grand Prix",
        "date": "2026-12-06",
        "lat": 24.4672,
        "lon": 54.6031
    }
]